{
  "lines": [
    {
      "line_number": 1,
      "line_name": "1호선",
      "stations": [
        {
          "id": 1,
          "name": "서울역",
          "latitude": 37.5569,
          "longitude": 126.9728,
          "phone_number": "02-123-4567",
          "description": "1호선의 노선"
        },
        {
          "id": 2,
          "name": "시청",
          "latitude": 37.5651,
          "longitude": 126.9769,
          "phone_number": "02-987-6543",
          "description": "1호선의 노선"
        },
        {
          "id": 3,
          "name": "종각",
          "latitude": 37.5701,
          "longitude": 126.9810,
          "phone_number": "02-987-6543",
          "description": "1호선의 노선"
        },
        {
          "id": 4,
          "name": "종로3가",
          "latitude": 37.5702,
          "longitude": 126.9842,
          "phone_number": "02-987-6543",
          "description": "1호선의 노선"
        },
        {
          "id": 5,
          "name": "종로5가",
          "latitude": 37.5709,
          "longitude": 126.9858,
          "phone_number": "02-987-6543",
          "description": "1호선의 노선"
        },
        {
          "id": 6,
          "name": "동대문",
          "latitude": 37.5749,
          "longitude": 127.0049,
          "phone_number": "02-987-6543",
          "description": "1호선의 노선"
        },
        {
          "id": 7,
          "name": "동묘앞",
          "latitude": 37.5783,
          "longitude": 127.0084,
          "phone_number": "02-987-6543",
          "description": "1호선의 노선"
        },
        {
          "id": 8,
          "name": "신설동",
          "latitude": 37.5770,
          "longitude": 127.0163,
          "phone_number": "02-987-6543",
          "description": "1호선의 노선"
        },
        {
          "id": 9,
          "name": "제기동",
          "latitude": 37.5742,
          "longitude": 127.0261,
          "phone_number": "02-987-6543",
          "description": "1호선의 노선"
        },
        {
          "id": 10,
          "name": "청량리",
          "latitude": 37.5776,
          "longitude": 127.0469,
          "phone_number": "02-987-6543",
          "description": "1호선의 노선"
        }
      ]
    },
    {
      "line_number": 2,
      "line_name": "2호선",
      "stations": [
        {
          "id": 11,
          "name": "시청",
          "latitude": 37.5651,
          "longitude": 126.9769,
          "phone_number": "02-987-6543",
          "description": "2호선의 노선"
        },
        {
          "id": 12,
          "name": "을지로입구",
          "latitude": 37.5705,
          "longitude": 126.9823,
          "phone_number": "02-987-6543",
          "description": "2호선의 노선"
        },
        {
          "id": 13,
          "name": "을지로3가",
          "latitude": 37.5700,
          "longitude": 126.9893,
          "phone_number": "02-987-6543",
          "description": "2호선의 노선"
        },
        {
          "id": 14,
          "name": "을지로4가",
          "latitude": 37.5704,
          "longitude": 126.9944,
          "phone_number": "02-987-6543",
          "description": "2호선의 노선"
        },
        {
          "id": 15,
          "name": "동대문역사문화공원",
          "latitude": 37.5740,
          "longitude": 127.0165,
          "phone_number": "02-987-6543",
          "description": "2호선의 노선"
        },
        {
          "id": 16,
          "name": "신당",
          "latitude": 37.5731,
          "longitude": 127.0055,
          "phone_number": "02-987-6543",
          "description": "2호선의 노선"
        },
        {
          "id": 17,
          "name": "상왕십리",
          "latitude": 37.5630,
          "longitude": 127.0192,
          "phone_number": "02-987-6543",
          "description": "2호선의 노선"
        },
        {
          "id": 18,
          "name": "왕십리",
          "latitude": 37.5586,
          "longitude": 127.0234,
          "phone_number": "02-987-6543",
          "description": "2호선의 노선"
        },
        {
          "id": 19,
          "name": "한양대",
          "latitude": 37.5500,
          "longitude": 127.0390,
          "phone_number": "02-987-6543",
          "description": "2호선의 노선"
        },
        {
          "id": 20,
          "name": "뚝섬",
          "latitude": 37.5467,
          "longitude": 127.0455,
          "phone_number": "02-987-6543",
          "description": "2호선의 노선"
        },
        {
          "id": 21,
          "name": "성수",
          "latitude": 37.5503,
          "longitude": 127.0583,
          "phone_number": "02-987-6543",
          "description": "2호선의 노선"
        },
        {
          "id": 22,
          "name": "건대입구",
          "latitude": 37.5335,
          "longitude": 127.0631,
          "phone_number": "02-987-6543",
          "description": "2호선의 노선"
        },
        {
          "id": 23,
          "name": "구의",
          "latitude": 37.5268,
          "longitude": 127.0743,
          "phone_number": "02-987-6543",
          "description": "2호선의 노선"
        },
        {
          "id": 24,
          "name": "강변",
          "latitude": 37.5225,
          "longitude": 127.0936,
          "phone_number": "02-987-6543",
          "description": "2호선의 노선"
        },
        {
          "id": 25,
          "name": "잠실나루",
          "latitude": 37.5153,
          "longitude": 127.1007,
          "phone_number": "02-987-6543",
          "description": "2호선의 노선"
        },
        {
          "id": 26,
          "name": "잠실",
          "latitude": 37.5130,
          "longitude": 127.1021,
          "phone_number": "02-987-6543",
          "description": "2호선의 노선"
        },
        {
          "id": 27,
          "name": "잠실시내",
          "latitude": 37.5140,
          "longitude": 127.0861,
          "phone_number": "02-987-6543",
          "description": "2호선의 노선"
        },
        {
          "id": 28,
          "name": "종합운동장",
          "latitude": 37.5146,
          "longitude": 127.0860,
          "phone_number": "02-987-6543",
          "description": "2호선의 노선"
        },
        {
          "id": 29,
          "name": "삼성",
          "latitude": 37.5064,
          "longitude": 127.0326,
          "phone_number": "02-987-6543",
          "description": "2호선의 노선"
        },
        {
          "id": 30,
          "name": "선릉",
          "latitude": 37.5073,
          "longitude": 127.0477,
          "phone_number": "02-987-6543",
          "description": "2호선의 노선"
        },
        {
          "id": 31,
          "name": "역삼",
          "latitude": 37.5055,
          "longitude": 127.0487,
          "phone_number": "02-987-6543",
          "description": "2호선의 노선"
        }
      ]
    },
    {
      "line_number": 3,
      "stations": [
        {
          "id": 62,
          "name": "지축",
          "latitude": 37.6045,
          "longitude": 126.911,
          "phone_number": "02-123-4567",
          "description": "3호선 지축역"
        },
        {
          "id": 63,
          "name": "구파발",
          "latitude": 37.6062,
          "longitude": 126.9301,
          "phone_number": "02-123-4567",
          "description": "3호선 구파발역"
        },
        {
          "id": 64,
          "name": "연신내",
          "latitude": 37.6105,
          "longitude": 126.9144,
          "phone_number": "02-123-4567",
          "description": "3호선 연신내역"
        },
        {
          "id": 65,
          "name": "불광",
          "latitude": 37.6204,
          "longitude": 126.9311,
          "phone_number": "02-123-4567",
          "description": "3호선 불광역"
        },
        {
          "id": 66,
          "name": "녹번",
          "latitude": 37.626,
          "longitude": 126.9315,
          "phone_number": "02-123-4567",
          "description": "3호선 녹번역"
        },
        {
          "id": 67,
          "name": "홍제",
          "latitude": 37.6212,
          "longitude": 126.9401,
          "phone_number": "02-123-4567",
          "description": "3호선 홍제역"
        },
        {
          "id": 68,
          "name": "무악재",
          "latitude": 37.5932,
          "longitude": 126.9655,
          "phone_number": "02-123-4567",
          "description": "3호선 무악재역"
        },
        {
          "id": 69,
          "name": "독립문",
          "latitude": 37.5796,
          "longitude": 126.9745,
          "phone_number": "02-123-4567",
          "description": "3호선 독립문역"
        },
        {
          "id": 70,
          "name": "경복궁",
          "latitude": 37.5777,
          "longitude": 126.977,
          "phone_number": "02-123-4567",
          "description": "3호선 경복궁역"
        },
        {
          "id": 71,
          "name": "안국",
          "latitude": 37.577,
          "longitude": 126.9812,
          "phone_number": "02-123-4567",
          "description": "3호선 안국역"
        },
        {
          "id": 72,
          "name": "종로3가",
          "latitude": 37.5636,
          "longitude": 126.9867,
          "phone_number": "02-123-4567",
          "description": "3호선 종로3가역"
        },
        {
          "id": 73,
          "name": "을지로3가",
          "latitude": 37.5636,
          "longitude": 126.9927,
          "phone_number": "02-123-4567",
          "description": "3호선 을지로3가역"
        },
        {
          "id": 74,
          "name": "충무로",
          "latitude": 37.5649,
          "longitude": 127.0054,
          "phone_number": "02-123-4567",
          "description": "3호선 충무로역"
        },
        {
          "id": 75,
          "name": "동대입구",
          "latitude": 37.5535,
          "longitude": 127.0141,
          "phone_number": "02-123-4567",
          "description": "3호선 동대입구역"
        },
        {
          "id": 76,
          "name": "약수",
          "latitude": 37.5482,
          "longitude": 127.015,
          "phone_number": "02-123-4567",
          "description": "3호선 약수역"
        },
        {
          "id": 77,
          "name": "금호",
          "latitude": 37.5492,
          "longitude": 127.0201,
          "phone_number": "02-123-4567",
          "description": "3호선 금호역"
        },
        {
          "id": 78,
          "name": "옥수",
          "latitude": 37.5465,
          "longitude": 127.0215,
          "phone_number": "02-123-4567",
          "description": "3호선 옥수역"
        },
        {
          "id": 79,
          "name": "압구정",
          "latitude": 37.5253,
          "longitude": 127.0256,
          "phone_number": "02-123-4567",
          "description": "3호선 압구정역"
        },
        {
          "id": 80,
          "name": "신사",
          "latitude": 37.5186,
          "longitude": 127.0243,
          "phone_number": "02-123-4567",
          "description": "3호선 신사역"
        },
        {
          "id": 81,
          "name": "잠원",
          "latitude": 37.5144,
          "longitude": 127.0205,
          "phone_number": "02-123-4567",
          "description": "3호선 잠원역"
        },
        {
          "id": 82,
          "name": "고속터미널",
          "latitude": 37.5094,
          "longitude": 127.013,
          "phone_number": "02-123-4567",
          "description": "3호선 고속터미널역"
        },
        {
          "id": 83,
          "name": "양재",
          "latitude": 37.496,
          "longitude": 127.021,
          "phone_number": "02-123-4567",
          "description": "3호선 양재역"
        },
        {
          "id": 84,
          "name": "매봉",
          "latitude": 37.49,
          "longitude": 127.0225,
          "phone_number": "02-123-4567",
          "description": "3호선 매봉역"
        },
        {
          "id": 85,
          "name": "도곡",
          "latitude": 37.493,
          "longitude": 127.0275,
          "phone_number": "02-123-4567",
          "description": "3호선 도곡역"
        },
        {
          "id": 86,
          "name": "대치",
          "latitude": 37.499,
          "longitude": 127.0365,
          "phone_number": "02-123-4567",
          "description": "3호선 대치역"
        },
        {
          "id": 87,
          "name": "학여울",
          "latitude": 37.5052,
          "longitude": 127.0453,
          "phone_number": "02-123-4567",
          "description": "3호선 학여울역"
        },
        {
          "id": 88,
          "name": "대청",
          "latitude": 37.5112,
          "longitude": 127.0533,
          "phone_number": "02-123-4567",
          "description": "3호선 대청역"
        },
        {
          "id": 89,
          "name": "일원",
          "latitude": 37.5171,
          "longitude": 127.0581,
          "phone_number": "02-123-4567",
          "description": "3호선 일원역"
        },
        {
          "id": 90,
          "name": "수서",
          "latitude": 37.521,
          "longitude": 127.065,
          "phone_number": "02-123-4567",
          "description": "3호선 수서역"
        },
        {
          "id": 91,
          "name": "가락시장",
          "latitude": 37.4941,
          "longitude": 127.0885,
          "phone_number": "02-123-4567",
          "description": "3호선 가락시장역"
        },
        {
          "id": 92,
          "name": "경찰병원",
          "latitude": 37.493,
          "longitude": 127.091,
          "phone_number": "02-123-4567",
          "description": "3호선 경찰병원역"
        },
        {
          "id": 93,
          "name": "오금",
          "latitude": 37.4915,
          "longitude": 127.0942,
          "phone_number": "02-123-4567",
          "description": "3호선 오금역"
        }
      ]
    },
    {
      "line_number": 4,
      "stations": [
        {
          "id": 94,
          "name": "당고개",
          "latitude": 37.6783,
          "longitude": 127.0457,
          "phone_number": "02-123-4567",
          "description": "4호선 당고개역"
        },
        {
          "id": 95,
          "name": "상계",
          "latitude": 37.6584,
          "longitude": 127.057,
          "phone_number": "02-123-4567",
          "description": "4호선 상계역"
        },
        {
          "id": 96,
          "name": "노원",
          "latitude": 37.6535,
          "longitude": 127.0578,
          "phone_number": "02-123-4567",
          "description": "4호선 노원역"
        },
        {
          "id": 97,
          "name": "창동",
          "latitude": 37.6284,
          "longitude": 127.058,
          "phone_number": "02-123-4567",
          "description": "4호선 창동역"
        },
        {
          "id": 98,
          "name": "쌍문",
          "latitude": 37.6143,
          "longitude": 127.0553,
          "phone_number": "02-123-4567",
          "description": "4호선 쌍문역"
        },
        {
          "id": 99,
          "name": "수유",
          "latitude": 37.6103,
          "longitude": 127.016,
          "phone_number": "02-123-4567",
          "description": "4호선 수유역"
        },
        {
          "id": 100,
          "name": "미아",
          "latitude": 37.6056,
          "longitude": 127.0115,
          "phone_number": "02-123-4567",
          "description": "4호선 미아역"
        },
        {
          "id": 101,
          "name": "미아사거리",
          "latitude": 37.604,
          "longitude": 127.011,
          "phone_number": "02-123-4567",
          "description": "4호선 미아사거리역"
        },
        {
          "id": 102,
          "name": "길음",
          "latitude": 37.5965,
          "longitude": 127.0036,
          "phone_number": "02-123-4567",
          "description": "4호선 길음역"
        },
        {
          "id": 103,
          "name": "성신여대입구",
          "latitude": 37.588,
          "longitude": 127.0005,
          "phone_number": "02-123-4567",
          "description": "4호선 성신여대입구역"
        },
        {
          "id": 104,
          "name": "한성대입구",
          "latitude": 37.5855,
          "longitude": 126.9932,
          "phone_number": "02-123-4567",
          "description": "4호선 한성대입구역"
        },
        {
          "id": 105,
          "name": "혜화",
          "latitude": 37.579,
          "longitude": 126.9945,
          "phone_number": "02-123-4567",
          "description": "4호선 혜화역"
        },
        {
          "id": 106,
          "name": "동대문",
          "latitude": 37.568,
          "longitude": 126.9983,
          "phone_number": "02-123-4567",
          "description": "4호선 동대문역"
        },
        {
          "id": 107,
          "name": "동대문역사문화공원",
          "latitude": 37.5661,
          "longitude": 126.9922,
          "phone_number": "02-123-4567",
          "description": "4호선 동대문역사문화공원역"
        },
        {
          "id": 108,
          "name": "충무로",
          "latitude": 37.5601,
          "longitude": 126.9882,
          "phone_number": "02-123-4567",
          "description": "4호선 충무로역"
        },
        {
          "id": 109,
          "name": "명동",
          "latitude": 37.5581,
          "longitude": 126.9895,
          "phone_number": "02-123-4567",
          "description": "4호선 명동역"
        },
        {
          "id": 110,
          "name": "회현",
          "latitude": 37.5557,
          "longitude": 126.9871,
          "phone_number": "02-123-4567",
          "description": "4호선 회현역"
        },
        {
          "id": 111,
          "name": "서울역",
          "latitude": 37.5541,
          "longitude": 126.9729,
          "phone_number": "02-123-4567",
          "description": "4호선 서울역"
        },
        {
          "id": 112,
          "name": "숙대입구",
          "latitude": 37.551,
          "longitude": 126.9711,
          "phone_number": "02-123-4567",
          "description": "4호선 숙대입구역"
        },
        {
          "id": 113,
          "name": "삼각지",
          "latitude": 37.5454,
          "longitude": 126.973,
          "phone_number": "02-123-4567",
          "description": "4호선 삼각지역"
        },
        {
          "id": 114,
          "name": "신용산",
          "latitude": 37.5271,
          "longitude": 126.9655,
          "phone_number": "02-123-4567",
          "description": "4호선 신용산역"
        },
        {
          "id": 115,
          "name": "이촌",
          "latitude": 37.5232,
          "longitude": 126.9587,
          "phone_number": "02-123-4567",
          "description": "4호선 이촌역"
        },
        {
          "id": 116,
          "name": "동작",
          "latitude": 37.5075,
          "longitude": 126.9324,
          "phone_number": "02-123-4567",
          "description": "4호선 동작역"
        },
        {
          "id": 117,
          "name": "총신대입구",
          "latitude": 37.497,
          "longitude": 126.9325,
          "phone_number": "02-123-4567",
          "description": "4호선 총신대입구역"
        },
        {
          "id": 118,
          "name": "사당",
          "latitude": 37.4853,
          "longitude": 126.927,
          "phone_number": "02-123-4567",
          "description": "4호선 사당역"
        },
        {
          "id": 119,
          "name": "남태령",
          "latitude": 37.4771,
          "longitude": 126.9175,
          "phone_number": "02-123-4567",
          "description": "4호선 남태령역"
        }
      ]
    },
    {
      "line_number": 5,
      "stations": [
        {
          "id": 120,
          "name": "김포공항",
          "line_number": 5,
          "latitude": 37.5534,
          "longitude": 126.8012,
          "phone_number": "02-123-4567",
          "description": "5호선 김포공항역"
        },
        {
          "id": 121,
          "name": "송정",
          "line_number": 5,
          "latitude": 37.5155,
          "longitude": 126.8101,
          "phone_number": "02-123-4567",
          "description": "5호선 송정역"
        },
        {
          "id": 122,
          "name": "마곡",
          "line_number": 5,
          "latitude": 37.5113,
          "longitude": 126.8254,
          "phone_number": "02-123-4567",
          "description": "5호선 마곡역"
        },
        {
          "id": 123,
          "name": "발산",
          "line_number": 5,
          "latitude": 37.515,
          "longitude": 126.8371,
          "phone_number": "02-123-4567",
          "description": "5호선 발산역"
        },
        {
          "id": 124,
          "name": "우장산",
          "line_number": 5,
          "latitude": 37.5088,
          "longitude": 126.8523,
          "phone_number": "02-123-4567",
          "description": "5호선 우장산역"
        },
        {
          "id": 125,
          "name": "화곡",
          "line_number": 5,
          "latitude": 37.513,
          "longitude": 126.8463,
          "phone_number": "02-123-4567",
          "description": "5호선 화곡역"
        },
        {
          "id": 126,
          "name": "까치산",
          "line_number": 5,
          "latitude": 37.5203,
          "longitude": 126.8431,
          "phone_number": "02-123-4567",
          "description": "5호선 까치산역"
        },
        {
          "id": 127,
          "name": "신정",
          "line_number": 5,
          "latitude": 37.5252,
          "longitude": 126.8624,
          "phone_number": "02-123-4567",
          "description": "5호선 신정역"
        },
        {
          "id": 128,
          "name": "목동",
          "line_number": 5,
          "latitude": 37.5289,
          "longitude": 126.8721,
          "phone_number": "02-123-4567",
          "description": "5호선 목동역"
        },
        {
          "id": 129,
          "name": "오목교",
          "line_number": 5,
          "latitude": 37.5295,
          "longitude": 126.8864,
          "phone_number": "02-123-4567",
          "description": "5호선 오목교역"
        },
        {
          "id": 130,
          "name": "양평",
          "line_number": 5,
          "latitude": 37.5335,
          "longitude": 126.8863,
          "phone_number": "02-123-4567",
          "description": "5호선 양평역"
        },
        {
          "id": 131,
          "name": "영등포구청",
          "line_number": 5,
          "latitude": 37.527,
          "longitude": 126.8969,
          "phone_number": "02-123-4567",
          "description": "5호선 영등포구청역"
        },
        {
          "id": 132,
          "name": "영등포시장",
          "line_number": 5,
          "latitude": 37.5232,
          "longitude": 126.8969,
          "phone_number": "02-123-4567",
          "description": "5호선 영등포시장역"
        },
        {
          "id": 133,
          "name": "신길",
          "line_number": 5,
          "latitude": 37.5073,
          "longitude": 126.9003,
          "phone_number": "02-123-4567",
          "description": "5호선 신길역"
        },
        {
          "id": 134,
          "name": "여의도",
          "line_number": 5,
          "latitude": 37.5333,
          "longitude": 126.9277,
          "phone_number": "02-123-4567",
          "description": "5호선 여의도역"
        },
        {
          "id": 135,
          "name": "여의나루",
          "line_number": 5,
          "latitude": 37.5315,
          "longitude": 126.9241,
          "phone_number": "02-123-4567",
          "description": "5호선 여의나루역"
        },
        {
          "id": 136,
          "name": "마포",
          "line_number": 5,
          "latitude": 37.5472,
          "longitude": 126.9168,
          "phone_number": "02-123-4567",
          "description": "5호선 마포역"
        },
        {
          "id": 137,
          "name": "공덕",
          "line_number": 5,
          "latitude": 37.5507,
          "longitude": 126.911,
          "phone_number": "02-123-4567",
          "description": "5호선 공덕역"
        },
        {
          "id": 138,
          "name": "애오개",
          "line_number": 5,
          "latitude": 37.551,
          "longitude": 126.9241,
          "phone_number": "02-123-4567",
          "description": "5호선 애오개역"
        },
        {
          "id": 139,
          "name": "충정로",
          "line_number": 5,
          "latitude": 37.5567,
          "longitude": 126.9344,
          "phone_number": "02-123-4567",
          "description": "5호선 충정로역"
        },
        {
          "id": 140,
          "name": "서대문",
          "line_number": 5,
          "latitude": 37.5604,
          "longitude": 126.9359,
          "phone_number": "02-123-4567",
          "description": "5호선 서대문역"
        },
        {
          "id": 141,
          "name": "광화문",
          "line_number": 5,
          "latitude": 37.5738,
          "longitude": 126.9753,
          "phone_number": "02-123-4567",
          "description": "5호선 광화문역"
        },
        {
          "id": 142,
          "name": "종로3가",
          "line_number": 5,
          "latitude": 37.5707,
          "longitude": 126.9893,
          "phone_number": "02-123-4567",
          "description": "5호선 종로3가역"
        },
        {
          "id": 143,
          "name": "을지로4가",
          "line_number": 5,
          "latitude": 37.5666,
          "longitude": 126.9929,
          "phone_number": "02-123-4567",
          "description": "5호선 을지로4가역"
        },
        {
          "id": 144,
          "name": "동대문역사문화공원",
          "line_number": 5,
          "latitude": 37.5723,
          "longitude": 126.9935,
          "phone_number": "02-123-4567",
          "description": "5호선 동대문역사문화공원역"
        },
        {
          "id": 145,
          "name": "청구",
          "line_number": 5,
          "latitude": 37.5734,
          "longitude": 127.02,
          "phone_number": "02-123-4567",
          "description": "5호선 청구역"
        },
        {
          "id": 146,
          "name": "신금호",
          "line_number": 5,
          "latitude": 37.565,
          "longitude": 127.0231,
          "phone_number": "02-123-4567",
          "description": "5호선 신금호역"
        },
        {
          "id": 147,
          "name": "행당",
          "line_number": 5,
          "latitude": 37.5528,
          "longitude": 127.0348,
          "phone_number": "02-123-4567",
          "description": "5호선 행당역"
        },
        {
          "id": 148,
          "name": "왕십리",
          "line_number": 5,
          "latitude": 37.5572,
          "longitude": 127.0384,
          "phone_number": "02-123-4567",
          "description": "5호선 왕십리역"
        },
        {
          "id": 149,
          "name": "마장",
          "line_number": 5,
          "latitude": 37.5564,
          "longitude": 127.0411,
          "phone_number": "02-123-4567",
          "description": "5호선 마장역"
        },
        {
          "id": 150,
          "name": "답십리",
          "line_number": 5,
          "latitude": 37.546,
          "longitude": 127.0429,
          "phone_number": "02-123-4567",
          "description": "5호선 답십리역"
        },
        {
          "id": 151,
          "name": "장한평",
          "line_number": 5,
          "latitude": 37.5351,
          "longitude": 127.0457,
          "phone_number": "02-123-4567",
          "description": "5호선 장한평역"
        },
        {
          "id": 152,
          "name": "군자",
          "line_number": 5,
          "latitude": 37.5367,
          "longitude": 127.0484,
          "phone_number": "02-123-4567",
          "description": "5호선 군자역"
        },
        {
          "id": 153,
          "name": "아차산",
          "line_number": 5,
          "latitude": 37.5313,
          "longitude": 127.0536,
          "phone_number": "02-123-4567",
          "description": "5호선 아차산역"
        },
        {
          "id": 154,
          "name": "광나루",
          "line_number": 5,
          "latitude": 37.5283,
          "longitude": 127.0585,
          "phone_number": "02-123-4567",
          "description": "5호선 광나루역"
        },
        {
          "id": 155,
          "name": "천호",
          "line_number": 5,
          "latitude": 37.5414,
          "longitude": 127.0586,
          "phone_number": "02-123-4567",
          "description": "5호선 천호역"
        },
        {
          "id": 156,
          "name": "강동",
          "line_number": 5,
          "latitude": 37.5464,
          "longitude": 127.0654,
          "phone_number": "02-123-4567",
          "description": "5호선 강동역"
        },
        {
          "id": 157,
          "name": "길동",
          "line_number": 5,
          "latitude": 37.5594,
          "longitude": 127.073,
          "phone_number": "02-123-4567",
          "description": "5호선 길동역"
        },
        {
          "id": 158,
          "name": "굽은다리",
          "line_number": 5,
          "latitude": 37.5731,
          "longitude": 127.0802,
          "phone_number": "02-123-4567",
          "description": "5호선 굽은다리역"
        },
        {
          "id": 159,
          "name": "명일",
          "line_number": 5,
          "latitude": 37.5718,
          "longitude": 127.0823,
          "phone_number": "02-123-4567",
          "description": "5호선 명일역"
        },
        {
          "id": 160,
          "name": "고덕",
          "line_number": 5,
          "latitude": 37.5621,
          "longitude": 127.0861,
          "phone_number": "02-123-4567",
          "description": "5호선 고덕역"
        },
        {
          "id": 161,
          "name": "상일동",
          "line_number": 5,
          "latitude": 37.5413,
          "longitude": 127.0932,
          "phone_number": "02-123-4567",
          "description": "5호선 상일동역"
        },
        {
          "id": 162,
          "name": "강일",
          "line_number": 5,
          "latitude": 37.5245,
          "longitude": 127.0978,
          "phone_number": "02-123-4567",
          "description": "5호선 강일역"
        },
        {
          "id": 163,
          "name": "미사",
          "line_number": 5,
          "latitude": 37.5257,
          "longitude": 127.1055,
          "phone_number": "02-123-4567",
          "description": "5호선 미사역"
        },
        {
          "id": 164,
          "name": "하남풍산",
          "line_number": 5,
          "latitude": 37.5253,
          "longitude": 127.1163,
          "phone_number": "02-123-4567",
          "description": "5호선 하남풍산역"
        },
        {
          "id": 165,
          "name": "하남시청",
          "line_number": 5,
          "latitude": 37.5165,
          "longitude": 127.1168,
          "phone_number": "02-123-4567",
          "description": "5호선 하남시청역"
        },
        {
          "id": 166,
          "name": "하남검단산",
          "line_number": 5,
          "latitude": 37.5133,
          "longitude": 127.1223,
          "phone_number": "02-123-4567",
          "description": "5호선 하남검단산역"
        },
        {
          "id": 167,
          "name": "둔춘동",
          "line_number": 5,
          "latitude": 37.5156,
          "longitude": 127.1312,
          "phone_number": "02-123-4567",
          "description": "5호선 둔춘동역"
        },
        {
          "id": 168,
          "name": "올림픽공원",
          "line_number": 5,
          "latitude": 37.5119,
          "longitude": 127.1369,
          "phone_number": "02-123-4567",
          "description": "5호선 올림픽공원역"
        },
        {
          "id": 169,
          "name": "방이",
          "line_number": 5,
          "latitude": 37.5074,
          "longitude": 127.1387,
          "phone_number": "02-123-4567",
          "description": "5호선 방이역"
        },
        {
          "id": 170,
          "name": "오금",
          "line_number": 5,
          "latitude": 37.5015,
          "longitude": 127.1401,
          "phone_number": "02-123-4567",
          "description": "5호선 오금역"
        },
        {
          "id": 171,
          "name": "개롱",
          "line_number": 5,
          "latitude": 37.5022,
          "longitude": 127.145,
          "phone_number": "02-123-4567",
          "description": "5호선 개롱역"
        },
        {
          "id": 172,
          "name": "거여",
          "line_number": 5,
          "latitude": 37.5071,
          "longitude": 127.1504,
          "phone_number": "02-123-4567",
          "description": "5호선 거여역"
        },
        {
          "id": 173,
          "name": "마천",
          "line_number": 5,
          "latitude": 37.5075,
          "longitude": 127.1583,
          "phone_number": "02-123-4567",
          "description": "5호선 마천역"
        }
      ]
    },
    {
      "line_number": 6,
      "stations": [
        {
          "id": 174,
          "name": "응암",
          "line_number": 6,
          "latitude": 37.5894,
          "longitude": 126.9272,
          "phone_number": "02-123-4567",
          "description": "6호선 응암역"
        },
        {
          "id": 175,
          "name": "역촌",
          "line_number": 6,
          "latitude": 37.591,
          "longitude": 126.933,
          "phone_number": "02-123-4567",
          "description": "6호선 역촌역"
        },
        {
          "id": 176,
          "name": "불광",
          "line_number": 6,
          "latitude": 37.5961,
          "longitude": 126.9344,
          "phone_number": "02-123-4567",
          "description": "6호선 불광역"
        },
        {
          "id": 177,
          "name": "독바위",
          "line_number": 6,
          "latitude": 37.5972,
          "longitude": 126.9306,
          "phone_number": "02-123-4567",
          "description": "6호선 독바위역"
        },
        {
          "id": 178,
          "name": "연신내",
          "line_number": 6,
          "latitude": 37.6044,
          "longitude": 126.9184,
          "phone_number": "02-123-4567",
          "description": "6호선 연신내역"
        },
        {
          "id": 179,
          "name": "구산",
          "line_number": 6,
          "latitude": 37.6059,
          "longitude": 126.9164,
          "phone_number": "02-123-4567",
          "description": "6호선 구산역"
        },
        {
          "id": 180,
          "name": "새절",
          "line_number": 6,
          "latitude": 37.6081,
          "longitude": 126.9182,
          "phone_number": "02-123-4567",
          "description": "6호선 새절역"
        },
        {
          "id": 181,
          "name": "증산",
          "line_number": 6,
          "latitude": 37.6106,
          "longitude": 126.9224,
          "phone_number": "02-123-4567",
          "description": "6호선 증산역"
        },
        {
          "id": 182,
          "name": "디지털미디어시티",
          "line_number": 6,
          "latitude": 37.619,
          "longitude": 126.9267,
          "phone_number": "02-123-4567",
          "description": "6호선 디지털미디어시티역"
        },
        {
          "id": 183,
          "name": "월드컵경기장",
          "line_number": 6,
          "latitude": 37.6103,
          "longitude": 126.9146,
          "phone_number": "02-123-4567",
          "description": "6호선 월드컵경기장역"
        },
        {
          "id": 184,
          "name": "마포구청",
          "line_number": 6,
          "latitude": 37.5585,
          "longitude": 126.9002,
          "phone_number": "02-123-4567",
          "description": "6호선 마포구청역"
        },
        {
          "id": 185,
          "name": "망원",
          "line_number": 6,
          "latitude": 37.5533,
          "longitude": 126.8987,
          "phone_number": "02-123-4567",
          "description": "6호선 망원역"
        },
        {
          "id": 186,
          "name": "합정",
          "line_number": 6,
          "latitude": 37.5452,
          "longitude": 126.8975,
          "phone_number": "02-123-4567",
          "description": "6호선 합정역"
        },
        {
          "id": 187,
          "name": "상수",
          "line_number": 6,
          "latitude": 37.5414,
          "longitude": 126.9022,
          "phone_number": "02-123-4567",
          "description": "6호선 상수역"
        },
        {
          "id": 188,
          "name": "광흥창",
          "line_number": 6,
          "latitude": 37.5443,
          "longitude": 126.9084,
          "phone_number": "02-123-4567",
          "description": "6호선 광흥창역"
        },
        {
          "id": 189,
          "name": "대흥",
          "line_number": 6,
          "latitude": 37.5513,
          "longitude": 126.9145,
          "phone_number": "02-123-4567",
          "description": "6호선 대흥역"
        },
        {
          "id": 190,
          "name": "공덕",
          "line_number": 6,
          "latitude": 37.5517,
          "longitude": 126.9193,
          "phone_number": "02-123-4567",
          "description": "6호선 공덕역"
        },
        {
          "id": 191,
          "name": "효창공원앞",
          "line_number": 6,
          "latitude": 37.5394,
          "longitude": 126.9505,
          "phone_number": "02-123-4567",
          "description": "6호선 효창공원앞역"
        },
        {
          "id": 192,
          "name": "삼각지",
          "line_number": 6,
          "latitude": 37.5533,
          "longitude": 126.9822,
          "phone_number": "02-123-4567",
          "description": "6호선 삼각지역"
        },
        {
          "id": 193,
          "name": "녹사평",
          "line_number": 6,
          "latitude": 37.5346,
          "longitude": 126.9924,
          "phone_number": "02-123-4567",
          "description": "6호선 녹사평역"
        },
        {
          "id": 194,
          "name": "이태원",
          "line_number": 6,
          "latitude": 37.5342,
          "longitude": 126.9943,
          "phone_number": "02-123-4567",
          "description": "6호선 이태원역"
        },
        {
          "id": 195,
          "name": "한강진",
          "line_number": 6,
          "latitude": 37.5435,
          "longitude": 126.9993,
          "phone_number": "02-123-4567",
          "description": "6호선 한강진역"
        },
        {
          "id": 196,
          "name": "버티고개",
          "line_number": 6,
          "latitude": 37.5545,
          "longitude": 127.0021,
          "phone_number": "02-123-4567",
          "description": "6호선 버티고개역"
        },
        {
          "id": 197,
          "name": "약수",
          "line_number": 6,
          "latitude": 37.5521,
          "longitude": 127.007,
          "phone_number": "02-123-4567",
          "description": "6호선 약수역"
        },
        {
          "id": 198,
          "name": "청구",
          "line_number": 6,
          "latitude": 37.5632,
          "longitude": 127.0131,
          "phone_number": "02-123-4567",
          "description": "6호선 청구역"
        },
        {
          "id": 199,
          "name": "신당",
          "line_number": 6,
          "latitude": 37.5639,
          "longitude": 127.02,
          "phone_number": "02-123-4567",
          "description": "6호선 신당역"
        },
        {
          "id": 200,
          "name": "동묘앞",
          "line_number": 6,
          "latitude": 37.5728,
          "longitude": 127.0294,
          "phone_number": "02-123-4567",
          "description": "6호선 동묘앞역"
        },
        {
          "id": 201,
          "name": "창신",
          "line_number": 6,
          "latitude": 37.5797,
          "longitude": 127.0364,
          "phone_number": "02-123-4567",
          "description": "6호선 창신역"
        },
        {
          "id": 202,
          "name": "보문",
          "line_number": 6,
          "latitude": 37.5912,
          "longitude": 127.0411,
          "phone_number": "02-123-4567",
          "description": "6호선 보문역"
        },
        {
          "id": 203,
          "name": "안암",
          "line_number": 6,
          "latitude": 37.5941,
          "longitude": 127.0425,
          "phone_number": "02-123-4567",
          "description": "6호선 안암역"
        },
        {
          "id": 204,
          "name": "고려대",
          "line_number": 6,
          "latitude": 37.5946,
          "longitude": 127.046,
          "phone_number": "02-123-4567",
          "description": "6호선 고려대역"
        },
        {
          "id": 205,
          "name": "월곡",
          "line_number": 6,
          "latitude": 37.5941,
          "longitude": 127.051,
          "phone_number": "02-123-4567",
          "description": "6호선 월곡역"
        },
        {
          "id": 206,
          "name": "상월곡",
          "line_number": 6,
          "latitude": 37.5963,
          "longitude": 127.0553,
          "phone_number": "02-123-4567",
          "description": "6호선 상월곡역"
        },
        {
          "id": 207,
          "name": "돌곶이",
          "line_number": 6,
          "latitude": 37.596,
          "longitude": 127.0597,
          "phone_number": "02-123-4567",
          "description": "6호선 돌곶이역"
        },
        {
          "id": 208,
          "name": "석계",
          "line_number": 6,
          "latitude": 37.5973,
          "longitude": 127.0617,
          "phone_number": "02-123-4567",
          "description": "6호선 석계역"
        },
        {
          "id": 209,
          "name": "태릉입구",
          "line_number": 6,
          "latitude": 37.5965,
          "longitude": 127.0648,
          "phone_number": "02-123-4567",
          "description": "6호선 태릉입구역"
        },
        {
          "id": 210,
          "name": "화랑대",
          "line_number": 6,
          "latitude": 37.5983,
          "longitude": 127.0689,
          "phone_number": "02-123-4567",
          "description": "6호선 화랑대역"
        },
        {
          "id": 211,
          "name": "봉화산",
          "line_number": 6,
          "latitude": 37.5952,
          "longitude": 127.0725,
          "phone_number": "02-123-4567",
          "description": "6호선 봉화산역"
        },
        {
          "id": 212,
          "name": "신내",
          "line_number": 6,
          "latitude": 37.5905,
          "longitude": 127.0718,
          "phone_number": "02-123-4567",
          "description": "6호선 신내역"
        }
      ]
    },
    {
      "line_number": 7,
      "stations": [
        {
          "id": 214,
          "name": "도봉산",
          "line_number": 7,
          "latitude": 37.6182,
          "longitude": 127.0368,
          "phone_number": "02-123-4567",
          "description": "7호선 도봉산역"
        },
        {
          "id": 215,
          "name": "수락산",
          "line_number": 7,
          "latitude": 37.6295,
          "longitude": 127.0445,
          "phone_number": "02-123-4567",
          "description": "7호선 수락산역"
        },
        {
          "id": 216,
          "name": "마들",
          "line_number": 7,
          "latitude": 37.6185,
          "longitude": 127.0621,
          "phone_number": "02-123-4567",
          "description": "7호선 마들역"
        },
        {
          "id": 217,
          "name": "노원",
          "line_number": 7,
          "latitude": 37.6536,
          "longitude": 127.0615,
          "phone_number": "02-123-4567",
          "description": "7호선 노원역"
        },
        {
          "id": 218,
          "name": "중계",
          "line_number": 7,
          "latitude": 37.6381,
          "longitude": 127.0637,
          "phone_number": "02-123-4567",
          "description": "7호선 중계역"
        },
        {
          "id": 219,
          "name": "하계",
          "line_number": 7,
          "latitude": 37.6018,
          "longitude": 127.0739,
          "phone_number": "02-123-4567",
          "description": "7호선 하계역"
        },
        {
          "id": 220,
          "name": "공릉",
          "line_number": 7,
          "latitude": 37.5903,
          "longitude": 127.0798,
          "phone_number": "02-123-4567",
          "description": "7호선 공릉역"
        },
        {
          "id": 221,
          "name": "태릉입구",
          "line_number": 7,
          "latitude": 37.6048,
          "longitude": 127.0853,
          "phone_number": "02-123-4567",
          "description": "7호선 태릉입구역"
        },
        {
          "id": 222,
          "name": "먹골",
          "line_number": 7,
          "latitude": 37.5907,
          "longitude": 127.096,
          "phone_number": "02-123-4567",
          "description": "7호선 먹골역"
        },
        {
          "id": 223,
          "name": "중화",
          "line_number": 7,
          "latitude": 37.5892,
          "longitude": 127.1011,
          "phone_number": "02-123-4567",
          "description": "7호선 중화역"
        },
        {
          "id": 224,
          "name": "상봉",
          "line_number": 7,
          "latitude": 37.5909,
          "longitude": 127.1057,
          "phone_number": "02-123-4567",
          "description": "7호선 상봉역"
        },
        {
          "id": 225,
          "name": "면목",
          "line_number": 7,
          "latitude": 37.5946,
          "longitude": 127.1078,
          "phone_number": "02-123-4567",
          "description": "7호선 면목역"
        },
        {
          "id": 226,
          "name": "사가정",
          "line_number": 7,
          "latitude": 37.59,
          "longitude": 127.1175,
          "phone_number": "02-123-4567",
          "description": "7호선 사가정역"
        },
        {
          "id": 227,
          "name": "용마산",
          "line_number": 7,
          "latitude": 37.5884,
          "longitude": 127.1293,
          "phone_number": "02-123-4567",
          "description": "7호선 용마산역"
        },
        {
          "id": 228,
          "name": "중곡",
          "line_number": 7,
          "latitude": 37.5916,
          "longitude": 127.1413,
          "phone_number": "02-123-4567",
          "description": "7호선 중곡역"
        },
        {
          "id": 229,
          "name": "군자",
          "line_number": 7,
          "latitude": 37.5918,
          "longitude": 127.1459,
          "phone_number": "02-123-4567",
          "description": "7호선 군자역"
        },
        {
          "id": 230,
          "name": "어린이대공원",
          "line_number": 7,
          "latitude": 37.5911,
          "longitude": 127.1506,
          "phone_number": "02-123-4567",
          "description": "7호선 어린이대공원역"
        },
        {
          "id": 231,
          "name": "건대입구",
          "line_number": 7,
          "latitude": 37.5915,
          "longitude": 127.1552,
          "phone_number": "02-123-4567",
          "description": "7호선 건대입구역"
        },
        {
          "id": 232,
          "name": "뚝섬유원지",
          "line_number": 7,
          "latitude": 37.5903,
          "longitude": 127.159,
          "phone_number": "02-123-4567",
          "description": "7호선 뚝섬유원지역"
        },
        {
          "id": 233,
          "name": "청담",
          "line_number": 7,
          "latitude": 37.5903,
          "longitude": 127.1604,
          "phone_number": "02-123-4567",
          "description": "7호선 청담역"
        },
        {
          "id": 234,
          "name": "강남구청",
          "line_number": 7,
          "latitude": 37.5903,
          "longitude": 127.1622,
          "phone_number": "02-123-4567",
          "description": "7호선 강남구청역"
        },
        {
          "id": 235,
          "name": "학동",
          "line_number": 7,
          "latitude": 37.5903,
          "longitude": 127.1643,
          "phone_number": "02-123-4567",
          "description": "7호선 학동역"
        },
        {
          "id": 236,
          "name": "논현",
          "line_number": 7,
          "latitude": 37.5903,
          "longitude": 127.1668,
          "phone_number": "02-123-4567",
          "description": "7호선 논현역"
        },
        {
          "id": 237,
          "name": "반포",
          "line_number": 7,
          "latitude": 37.5903,
          "longitude": 127.1684,
          "phone_number": "02-123-4567",
          "description": "7호선 반포역"
        },
        {
          "id": 238,
          "name": "고속터미널",
          "line_number": 7,
          "latitude": 37.5903,
          "longitude": 127.1702,
          "phone_number": "02-123-4567",
          "description": "7호선 고속터미널역"
        },
        {
          "id": 239,
          "name": "내방",
          "line_number": 7,
          "latitude": 37.5903,
          "longitude": 127.1722,
          "phone_number": "02-123-4567",
          "description": "7호선 내방역"
        },
        {
          "id": 240,
          "name": "이수",
          "line_number": 7,
          "latitude": 37.5903,
          "longitude": 127.1744,
          "phone_number": "02-123-4567",
          "description": "7호선 이수역"
        },
        {
          "id": 241,
          "name": "남성",
          "line_number": 7,
          "latitude": 37.5903,
          "longitude": 127.1762,
          "phone_number": "02-123-4567",
          "description": "7호선 남성역"
        },
        {
          "id": 242,
          "name": "숭실대입구",
          "line_number": 7,
          "latitude": 37.5903,
          "longitude": 127.1786,
          "phone_number": "02-123-4567",
          "description": "7호선 숭실대입구역"
        },
        {
          "id": 243,
          "name": "상도",
          "line_number": 7,
          "latitude": 37.5903,
          "longitude": 127.1803,
          "phone_number": "02-123-4567",
          "description": "7호선 상도역"
        },
        {
          "id": 244,
          "name": "장승배기",
          "line_number": 7,
          "latitude": 37.5903,
          "longitude": 127.1824,
          "phone_number": "02-123-4567",
          "description": "7호선 장승배기역"
        },
        {
          "id": 245,
          "name": "신대방삼거리",
          "line_number": 7,
          "latitude": 37.5903,
          "longitude": 127.1847,
          "phone_number": "02-123-4567",
          "description": "7호선 신대방삼거리역"
        },
        {
          "id": 246,
          "name": "보라매",
          "line_number": 7,
          "latitude": 37.5903,
          "longitude": 127.1864,
          "phone_number": "02-123-4567",
          "description": "7호선 보라매역"
        },
        {
          "id": 247,
          "name": "신풍",
          "line_number": 7,
          "latitude": 37.5903,
          "longitude": 127.1882,
          "phone_number": "02-123-4567",
          "description": "7호선 신풍역"
        },
        {
          "id": 248,
          "name": "대림",
          "line_number": 7,
          "latitude": 37.5903,
          "longitude": 127.1901,
          "phone_number": "02-123-4567",
          "description": "7호선 대림역"
        },
        {
          "id": 249,
          "name": "남구로",
          "line_number": 7,
          "latitude": 37.5903,
          "longitude": 127.192,
          "phone_number": "02-123-4567",
          "description": "7호선 남구로역"
        },
        {
          "id": 250,
          "name": "가산디지털단지",
          "line_number": 7,
          "latitude": 37.5903,
          "longitude": 127.1938,
          "phone_number": "02-123-4567",
          "description": "7호선 가산디지털단지역"
        },
        {
          "id": 251,
          "name": "철산",
          "line_number": 7,
          "latitude": 37.5903,
          "longitude": 127.1955,
          "phone_number": "02-123-4567",
          "description": "7호선 철산역"
        },
        {
          "id": 252,
          "name": "광명사거리",
          "line_number": 7,
          "latitude": 37.5903,
          "longitude": 127.1975,
          "phone_number": "02-123-4567",
          "description": "7호선 광명사거리역"
        },
        {
          "id": 253,
          "name": "천왕",
          "line_number": 7,
          "latitude": 37.5903,
          "longitude": 127.1991,
          "phone_number": "02-123-4567",
          "description": "7호선 천왕역"
        },
        {
          "id": 254,
          "name": "온수",
          "line_number": 7,
          "latitude": 37.5903,
          "longitude": 127.2008,
          "phone_number": "02-123-4567",
          "description": "7호선 온수역"
        }
      ]
    },
    {
      "line_number": 7,
      "stations": [
        {
          "id": 255,
          "name": "암사",
          "line_number": 8,
          "latitude": 37.5408,
          "longitude": 127.1232,
          "phone_number": "02-123-4567",
          "description": "8호선 암사역"
        },
        {
          "id": 256,
          "name": "천호",
          "line_number": 8,
          "latitude": 37.5543,
          "longitude": 127.1165,
          "phone_number": "02-123-4567",
          "description": "8호선 천호역"
        },
        {
          "id": 257,
          "name": "강동구청",
          "line_number": 8,
          "latitude": 37.5479,
          "longitude": 127.1348,
          "phone_number": "02-123-4567",
          "description": "8호선 강동구청역"
        },
        {
          "id": 258,
          "name": "몽촌토성",
          "line_number": 8,
          "latitude": 37.5301,
          "longitude": 127.1167,
          "phone_number": "02-123-4567",
          "description": "8호선 몽촌토성역"
        },
        {
          "id": 259,
          "name": "잠실",
          "line_number": 8,
          "latitude": 37.5132,
          "longitude": 127.1004,
          "phone_number": "02-123-4567",
          "description": "8호선 잠실역"
        },
        {
          "id": 260,
          "name": "석촌",
          "line_number": 8,
          "latitude": 37.5052,
          "longitude": 127.1017,
          "phone_number": "02-123-4567",
          "description": "8호선 석촌역"
        },
        {
          "id": 261,
          "name": "송파",
          "line_number": 8,
          "latitude": 37.5039,
          "longitude": 127.1061,
          "phone_number": "02-123-4567",
          "description": "8호선 송파역"
        },
        {
          "id": 262,
          "name": "가락시장",
          "line_number": 8,
          "latitude": 37.4971,
          "longitude": 127.1196,
          "phone_number": "02-123-4567",
          "description": "8호선 가락시장역"
        },
        {
          "id": 263,
          "name": "문정",
          "line_number": 8,
          "latitude": 37.4914,
          "longitude": 127.1227,
          "phone_number": "02-123-4567",
          "description": "8호선 문정역"
        },
        {
          "id": 264,
          "name": "장지",
          "line_number": 8,
          "latitude": 37.4825,
          "longitude": 127.1248,
          "phone_number": "02-123-4567",
          "description": "8호선 장지역"
        },
        {
          "id": 265,
          "name": "복정",
          "line_number": 8,
          "latitude": 37.4781,
          "longitude": 127.127,
          "phone_number": "02-123-4567",
          "description": "8호선 복정역"
        },
        {
          "id": 266,
          "name": "남위례",
          "line_number": 8,
          "latitude": 37.4875,
          "longitude": 127.1361,
          "phone_number": "02-123-4567",
          "description": "8호선 남위례역"
        },
        {
          "id": 267,
          "name": "산성",
          "line_number": 8,
          "latitude": 37.4958,
          "longitude": 127.1374,
          "phone_number": "02-123-4567",
          "description": "8호선 산성역"
        },
        {
          "id": 268,
          "name": "남한산성입구",
          "line_number": 8,
          "latitude": 37.5043,
          "longitude": 127.1441,
          "phone_number": "02-123-4567",
          "description": "8호선 남한산성입구역"
        },
        {
          "id": 269,
          "name": "단대오거리",
          "line_number": 8,
          "latitude": 37.5078,
          "longitude": 127.1367,
          "phone_number": "02-123-4567",
          "description": "8호선 단대오거리역"
        },
        {
          "id": 270,
          "name": "신흥",
          "line_number": 8,
          "latitude": 37.5134,
          "longitude": 127.1418,
          "phone_number": "02-123-4567",
          "description": "8호선 신흥역"
        },
        {
          "id": 271,
          "name": "수진",
          "line_number": 8,
          "latitude": 37.5184,
          "longitude": 127.1466,
          "phone_number": "02-123-4567",
          "description": "8호선 수진역"
        },
        {
          "id": 272,
          "name": "모란",
          "line_number": 8,
          "latitude": 37.5298,
          "longitude": 127.1474,
          "phone_number": "02-123-4567",
          "description": "8호선 모란역"
        }
      ]
    }
  ]
}
